[
  {
    "name": "B-Fold Bicycles",
    "address": "224 E 13th St, Manhattan, NY",
    "boro": "Manhattan",
    "storetype": 1,
    "hours": "Mon, Wed, Thu, Fri, Sat 12-6, Closed Sun and Tue",
    "website": "http://www.bfold.com/",
    "longitude": -73.9871,
    "latitude": 40.7322,
    "foursquare_id": "4a3014baf964a52012991fe3",
    "foursquare_name": "bfold"
  },
  {
    "name": "Gotham Bikes Dwntn (Toga Bikes)",
    "address": "101 Reade St, Manhattan, NY",
    "boro": "Manhattan",
    "storetype": 3,
    "hours": "M-W 10-6:30, Thu 10-7:30, Fri 10:6:30, Sat 10-6:30, Sun 10:30-5",
    "website": "http://togabikes.com/",
    "longitude": -74.00877,
    "latitude": 40.716352,
    "foursquare_id": "4a9ad452f964a520013320e3",
    "foursquare_name": "Gotham Bikes"
  },
  {
    "name": "Robert's Bicycle",
    "address": "33-13 Francis Lewis Blvd, Bayside, NY",
    "boro": "Bayside",
    "storetype": 1,
    "hours": "Mon, Wed, Fri 10-8, Tue, Thur 10-7, Sat 9:30-6, Sun 11:30-4:30:30",
    "website": "http://www.robertsbicycles.net",
    "longitude": -73.789849,
    "latitude": 40.767097,
    "foursquare_id": "4bc63ce9b387d13a7a8bc1e8",
    "foursquare_name": "Robert's Bicycle"
  },
  {
    "name": "Trackstar",
    "address": "231 Eldridge Street, Manhattan, NY",
    "boro": "Manhattan",
    "storetype": 1,
    "hours": "Mon-Fri 10-7, Sat 12-7, Closed Sunday",
    "website": "http://www.trackstarnyc.com/shop/",
    "longitude": -73.990089,
    "latitude": 40.722195,
    "foursquare_id": "4a85cea1f964a52054ff1fe3",
    "foursquare_name": "Trackstar"
  },
  {
    "name": "Tread Bike Shop",
    "address": "250 Dyckman St, Manhattan, NY",
    "boro": "Manhattan",
    "storetype": 3,
    "hours": "Mon-Sat 10-7, Sun 10-6",
    "website": "http://treadbikeshop.com/",
    "longitude": -73.928456,
    "latitude": 40.866332,
    "foursquare_id": "4ba4eb06f964a520e6c238e3",
    "foursquare_name": "Tread Bike Shop"
  },
  {
    "name": "Verrazano Bicycle Shop",
    "address": "7308 5th Ave, Brooklyn, NY",
    "boro": "Brooklyn",
    "storetype": 3,
    "hours": "M-Sat 10-7, Sun 11-5",
    "website": "http://verrazanocycles.com/",
    "longitude": -74.022193,
    "latitude": 40.630886,
    "foursquare_id": "4b4c12d9f964a520f1ad26e3",
    "foursquare_name": "Verrazano Bicycle Shop"
  },
  {
    "name": "Victor's Bike Repair",
    "address": "4125 Broadway, Manhattan, NY",
    "boro": "Manhattan",
    "storetype": 3,
    "hours": "Sun-Fri 10-8, Sat 10-9",
    "website": "",
    "longitude": -73.938761,
    "latitude": 40.845733,
    "foursquare_id": "51898c62498e369a48c8fb06",
    "foursquare_name": "Victor's Bike Repair"
  },
  {
    "name": "Weber's Bicycles",
    "address": "4715 New Utrecht Ave, Brooklyn, NY",
    "boro": "Brooklyn",
    "storetype": 1,
    "hours": "Sun-Thu 10:30-7, Fri 10:30-2:30, Closed Sat",
    "website": "",
    "longitude": -73.994384,
    "latitude": 40.638103
  },
  {
    "name": "Westchester Bicycle Pro Shop",
    "address": "2611 Westchester Ave, Bronx, NY",
    "boro": "Bronx",
    "storetype": 1,
    "hours": "M-F 10-7, Sat 10-6, Sun 10-4",
    "website": "http://westchesterpro.com",
    "longitude": -73.840996,
    "latitude": 40.841337,
    "foursquare_id": "4bbb8331ed7776b065893e51",
    "foursquare_name": "Westchester Bicycle Pro Shop"
  },
  {
    "name": "Liberty Bicycles",
    "address": "846 9th Avenue, Manhattan, NY",
    "boro": "Manhattan",
    "storetype": 3,
    "hours": "Everyday 9:30-7",
    "website": "",
    "longitude": -73.986376,
    "latitude": 40.76673,
    "foursquare_id": "4b2963ebf964a5200c9e24e3",
    "foursquare_name": "Liberty Bicycles"
  },
  {
    "name": "Manhattan Bicycles",
    "address": "791 9th Avenue, Manhattan, NY",
    "boro": "Manhattan",
    "storetype": 3,
    "hours": "Everyday 10-7",
    "website": "",
    "longitude": -73.987943,
    "latitude": 40.765139,
    "foursquare_id": "4c082510a1b32d7f2c8f95f0",
    "foursquare_name": "Manhattan Bicycles"
  },
  {
    "name": "Manhattan Velo",
    "address": "141 E 17th St, Manhattan, NY",
    "boro": "Manhattan",
    "storetype": 3,
    "hours": "Everyday 10-7",
    "website": "http://www.manhattanvelo.com/",
    "longitude": -73.986823,
    "latitude": 40.735797,
    "foursquare_id": "4a708af1f964a520bfd71fe3",
    "foursquare_name": "Manhattan Velo"
  },
  {
    "name": "Mani's Bicycle Shop",
    "address": "8 Bennett Ave, Manhattan, NY",
    "boro": "Manhattan",
    "storetype": 3,
    "hours": "Mon-Fri 10-7:30, Sat 10-7, Sun 11-6",
    "website": "",
    "longitude": -73.936663,
    "latitude": 40.850861,
    "foursquare_id": "4e3d917dfa76455375b9e7b7",
    "foursquare_name": "Mani's Bike Shop"
  },
  {
    "name": "Metro Bicycles",
    "address": "1311 Lexington Ave, Manhattan, NY",
    "boro": "Manhattan",
    "storetype": 3,
    "hours": "Mon-Sat 9:30-6:30, Sun 9:30-6",
    "website": "http://www.metrobicycles.com/",
    "longitude": -73.954488,
    "latitude": 40.780845,
    "foursquare_id": "532e15ce498e3904f5cd9466",
    "foursquare_name": "Metro Bicycles"
  },
  {
    "name": "Midtown Metro Bicycles",
    "address": "360 W 47th, Manhattan, NY",
    "boro": "Manhattan",
    "storetype": 3,
    "hours": "Mon-Fri 9:30-6:30, Sat 9:30-6, Sun 10-6",
    "website": "http://www.metrobicycles.com/",
    "longitude": -73.989225,
    "latitude": 40.760998
  },
  {
    "name": "Modsquad Cycles",
    "address": "2119 Frederick Douglas Boulevard, Manhattan, NY",
    "boro": "Manhattan",
    "storetype": 3,
    "hours": "Tue-Fri 10-7, Sat 10-6, Sun 12-5, Closed Mon",
    "website": "http://www.modsquadcycles.com",
    "longitude": -73.956244,
    "latitude": 40.803496,
    "foursquare_id": "4ab92bc4f964a520557e20e3",
    "foursquare_name": "MODSquad Cycles"
  },
  {
    "name": "Mr. C's Cycles",
    "address": "4622 7th Avenue, Brooklyn, NY",
    "boro": "Brooklyn",
    "storetype": 3,
    "hours": "M, W, Thu, Fri 10-7, Closed Tue, Sat 10-6, Sun 10-5",
    "website": "http://www.mrccycles.com/",
    "longitude": -74.003883,
    "latitude": 40.644594,
    "foursquare_id": "4bf7ff695ec320a153de87d3",
    "foursquare_name": "Mr. C's Cycles"
  },
  {
    "name": "Neighborhood Cycle, Inc.",
    "address": "571 Courtlandt Avenue, Bronx, NY",
    "boro": "Bronx",
    "storetype": 1,
    "hours": "Everyday 9-7",
    "website": "http://neighborhoodcycle.com",
    "longitude": -73.91942,
    "latitude": 40.817135,
    "foursquare_id": "4d03abeb37036dcb01900bfb",
    "foursquare_name": "Neighborhood Bicycle"
  },
  {
    "name": "Nelson's Bicycle Shop",
    "address": "251 Bushwick Ave, Brooklyn, NY",
    "boro": "Brooklyn",
    "storetype": 1,
    "hours": "Mon-Sat 11-7, Closed Sunday",
    "website": "",
    "longitude": -73.939615,
    "latitude": 40.707365,
    "foursquare_id": "4b2401b8f964a520f25e24e3",
    "foursquare_name": "Nelson's Bicycle Shop"
  },
  {
    "name": "Gray's Bicycle",
    "address": "8234 Lefferts Blvd, Queens, NY",
    "boro": "Queens",
    "storetype": 3,
    "hours": "Tue-Sat 10:30-6:30, Sun 10-5, Closed Mon",
    "website": "",
    "longitude": -73.831759,
    "latitude": 40.70614
  },
  {
    "name": "Twin Bicycles",
    "address": "7520 Metropolitan Ave, Middle Village, NY",
    "boro": "Middle Village",
    "storetype": 1,
    "hours": "Everday 10-8",
    "website": "",
    "longitude": -73.87689390000003,
    "latitude": 40.712727
  },
  {
    "name": "Laurelton Bicycle Shop",
    "address": "23220 Merrick Blvd, Jamaica, NY",
    "boro": "Jamaica",
    "storetype": 1,
    "hours": "Everyday 11-6",
    "website": "",
    "longitude": -73.73717299999998,
    "latitude": 40.674695,
    "foursquare_id": "4d8ce5b5d265236a09abe516",
    "foursquare_name": "Laurelton Cycle"
  },
  {
    "name": "NYC Bikes",
    "address": "140 Havemeyer Street, Brooklyn, NY",
    "boro": "Brooklyn",
    "storetype": 3,
    "hours": "M, Tue, Thu, Fri, Sat 11-7, Closed Wed, Sun 11-5",
    "website": "http://nycbikes.com/",
    "longitude": -73.957466,
    "latitude": 40.712008,
    "foursquare_id": "4d94b368af6737047d758209",
    "foursquare_name": "NYC Bikes"
  },
  {
    "name": "NYC Velo",
    "address": "64 2nd Avenue, Manhattan, NY",
    "boro": "Manhattan",
    "storetype": 3,
    "hours": "Mon-Fri 11-8, Sat-Sun 11-6",
    "website": "http://www.nycvelo.com/",
    "longitude": -73.989454,
    "latitude": 40.725875,
    "foursquare_id": "4a58f57ef964a5204db81fe3",
    "foursquare_name": "NYC Velo"
  },
  {
    "name": "Waterfront Bicycle Shop",
    "address": "391 West Street, Manhattan, NY",
    "boro": "Manhattan",
    "storetype": 3,
    "hours": "",
    "website": "http://www.bikeshopny.com",
    "longitude": -74.009963,
    "latitude": 40.732887,
    "foursquare_id": "4bc0b211f8219c7495fbb110",
    "foursquare_name": "Waterfront Bicycle Shop"
  },
  {
    "name": "On the Move",
    "address": "400 7th Ave, Brooklyn, NY",
    "boro": "Brooklyn",
    "storetype": 3,
    "hours": "M 11-7, Tue-Fri 12-7, Sat 10-6, Sun 11-5",
    "website": "http://onthemovenyc.com/",
    "longitude": -73.983509,
    "latitude": 40.664823,
    "foursquare_id": "4a2c122cf964a5201a971fe3",
    "foursquare_name": "On the Move"
  },
  {
    "name": "Paragon Sports",
    "address": "867 Broadway, Manhattan, NY",
    "boro": "Manhattan",
    "storetype": 1,
    "hours": "Mon-Sat 10-8, Sun 11:30-7",
    "website": "http://www.paragonsports.com/Paragon/Shop",
    "longitude": -73.990363,
    "latitude": 40.737583,
    "foursquare_id": "49e34b16f964a5206f621fe3",
    "foursquare_name": "Paragon Sports"
  },
  {
    "name": "Pedal Pusher Bikes",
    "address": "1306 Second Ave, Manhattan, NY",
    "boro": "Manhattan",
    "storetype": 3,
    "hours": "Sat-Mon 10-6. Closed Tue, Wed 10-7, Thu 10-8, Fri 10-6",
    "website": "http://pedalpusherbikeshop.com/",
    "longitude": -73.95978,
    "latitude": 40.766585,
    "foursquare_id": "4bb78be953649c74b3d945fb",
    "foursquare_name": "Pedal Pusher Bike Shop"
  },
  {
    "name": "R & A Cycles",
    "address": "105 5th Ave, Brooklyn, NY",
    "boro": "Brooklyn",
    "storetype": 1,
    "hours": "Mon-Fri 10-7, Sat 10-6, Sun 11-5",
    "website": "http://www.racycles.com/",
    "longitude": -73.978252,
    "latitude": 40.679603,
    "foursquare_id": "4a0f6f89f964a52067761fe3",
    "foursquare_name": "R&A Cycles"
  },
  {
    "name": "Recycle-A-Bicycle",
    "address": "75 Avenue C, Manhattan, NY",
    "boro": "Manhattan",
    "storetype": 3,
    "hours": "Mon-Sat 12-7, Closed Sunday",
    "website": "http://www.recycleabicycle.org/",
    "longitude": -73.979739,
    "latitude": 40.723152,
    "foursquare_id": "4bae513ef964a520e5a13be3",
    "foursquare_name": "Recycle-A-Bicycle"
  },
  {
    "name": "Recycle-A-Bicycle",
    "address": "35 Pearl Street, Brooklyn, NY",
    "boro": "Brooklyn",
    "storetype": 3,
    "hours": "Mon-Sat 12-7, Closed Sunday",
    "website": "http://www.recycleabicycle.org/",
    "longitude": -73.987455,
    "latitude": 40.70389,
    "foursquare_id": "4a7cc41af964a5208ded1fe3",
    "foursquare_name": "Recycle-A-Bicycle"
  },
  {
    "name": "Roy's Sheepshead Cycle",
    "address": "2679 Coney Island Ave, Brooklyn, NY",
    "boro": "Brooklyn",
    "storetype": 1,
    "hours": "Mon-Thu 10-8, Fri-Sat 10-6, Sun 11-6",
    "website": "http://roysbikes.com/",
    "longitude": -73.960511,
    "latitude": 40.591447,
    "foursquare_id": "4b4c1188f964a520daad26e3",
    "foursquare_name": "Roy's Sheepshead Cycle"
  },
  {
    "name": "Sid's Bikes NYC",
    "address": "235 E 34th St, Manhattan, NY",
    "boro": "Manhattan",
    "storetype": 1,
    "hours": "Mon-Fri 10-8, Sat 10-6, Sun 11-5",
    "website": "http://www.sidsbikes.com/",
    "longitude": -73.976903,
    "latitude": 40.745363
  },
  {
    "name": "Sid's Bikes NYC",
    "address": "151 W 19th St, Manhattan, NY",
    "boro": "Manhattan",
    "storetype": 1,
    "hours": "Mon-Fri 10-8, Sat 10-6, Sun 11-5",
    "website": "http://www.sidsbikes.com/",
    "longitude": -73.995945,
    "latitude": 40.741167
  },
  {
    "name": "Spokesman Cycles",
    "address": "49-04 Vernon Blvd., Queens, NY",
    "boro": "Queens",
    "storetype": 3,
    "hours": "Everday 10-7",
    "website": "http://www.spokesmancycles.com/",
    "longitude": -73.954006,
    "latitude": 40.743345,
    "foursquare_id": "4af6f51df964a5205b0422e3",
    "foursquare_name": "Spokesman Cycles"
  },
  {
    "name": "Terrific's Video and Bikes",
    "address": "1547 Broadway, Brooklyn, NY",
    "boro": "Brooklyn",
    "storetype": 1,
    "hours": "Mon-Sat 10-8, Sun 11-5",
    "website": "http://terrificbikes.com/",
    "longitude": -73.916177,
    "latitude": 40.686319
  },
  {
    "name": "Toga Bikes Westside",
    "address": "110 West End Ave, Manhattan, NY",
    "boro": "Manhattan",
    "storetype": 3,
    "hours": "M-W 11-7, Thu 11-8, Fri 11-7, Sat 10-6, Sun 11-7",
    "website": "http://togabikes.com/",
    "longitude": -73.987817,
    "latitude": 40.774944,
    "foursquare_id": "4af6ea9ff964a5201c0422e3",
    "foursquare_name": "Toga Bike Shop"
  },
  {
    "name": "Tony's Bicycles",
    "address": "35-01 23rd Ave, Queens, NY",
    "boro": "Queens",
    "storetype": 1,
    "hours": "M-Sat 9:30-7:30, Sun 9:30-6",
    "website": "http://tonysbicycles.com",
    "longitude": -73.9111197,
    "latitude": 40.7730641,
    "foursquare_id": "4bdc70902a3a0f47f1d7b2b6",
    "foursquare_name": "Tony's Bicycle"
  },
  {
    "name": "Bill's Cyclery",
    "address": "6324 Roosevelt Ave, Queens, NY",
    "boro": "Queens",
    "storetype": 1,
    "hours": "M-Sat 10-8, Sun 11-3",
    "website": "",
    "longitude": -73.835109,
    "latitude": 40.75794,
    "foursquare_id": "4c2a6760b34ad13a6936e8ce",
    "foursquare_name": "Bill's Cyclery"
  },
  {
    "name": "Bravo Bike Repairs",
    "address": "187 Wilson Avenue, Brooklyn, NY",
    "boro": "Brooklyn",
    "storetype": 1,
    "hours": "M, Tue, Thu, Fri, Sat 9:30-7, Closed Wed, Sun 10-6",
    "website": "",
    "longitude": -73.923349,
    "latitude": 40.699518
  },
  {
    "name": "Brooklyn Bicycle Center",
    "address": "673 Coney Island Ave, Brooklyn, NY",
    "boro": "Brooklyn",
    "storetype": 1,
    "hours": "Everyday 10-7",
    "website": "",
    "longitude": -73.969097,
    "latitude": 40.640927,
    "foursquare_id": "4b4c129ff964a520edad26e3",
    "foursquare_name": "Brooklyn Bicycle Center"
  },
  {
    "name": "Brooklyn Heights Bike",
    "address": "278 Atlantic Ave, Brooklyn, NY",
    "boro": "Brooklyn",
    "storetype": 1,
    "hours": "Mon-Sat 10-6, Sun 11-3",
    "website": "",
    "longitude": -73.989996,
    "latitude": 40.688794
  },
  {
    "name": "B's Bikes",
    "address": "262 Driggs Avenue, Brooklyn, NY",
    "boro": "Brooklyn",
    "storetype": 1,
    "hours": "Everyday 12-7",
    "website": "",
    "longitude": -73.948297,
    "latitude": 40.722704,
    "foursquare_id": "49f4b5e6f964a5203b6b1fe3",
    "foursquare_name": "B's Bikes"
  },
  {
    "name": "Buddy's Schwinn Bicycles",
    "address": "7930 Parsons Blvd, Queens, NY",
    "boro": "Queens",
    "storetype": 1,
    "hours": "M, Tue, Thu, Fri 10-7, Closed Wed, Sat 10-5, Sun 11-4",
    "website": "",
    "longitude": -73.826439,
    "latitude": 40.79541
  },
  {
    "name": "Busy Bee Bikes",
    "address": "437 East 6th Street, Manhattan, NY",
    "boro": "Manhattan",
    "storetype": 1,
    "hours": "Everyday 11:30-8",
    "website": "",
    "longitude": -73.985207,
    "latitude": 40.726155,
    "foursquare_id": "4a99ae91f964a520cb2f20e3",
    "foursquare_name": "Busy Bee Bikes"
  },
  {
    "name": "Castle Hill Bicycle Center",
    "address": "3467 E Tremont Ave, Bronx, NY",
    "boro": "Bronx",
    "storetype": 1,
    "hours": "M-Sat 10:30-7, Sun 12-5",
    "website": "",
    "longitude": -73.827118,
    "latitude": 40.831974
  },
  {
    "name": "Champion Bicycle",
    "address": "896 Amsterdam Ave, Manhattan, NY",
    "boro": "Manhattan",
    "storetype": 3,
    "hours": "Mon-Fri 10-7, Sat-Sun 10:30-6",
    "website": "http://www.championbikes.com/",
    "longitude": -73.966907,
    "latitude": 40.799053
  },
  {
    "name": "Chelsea Bikes",
    "address": "130 W 26th St, Manhattan, NY",
    "boro": "Manhattan",
    "storetype": 3,
    "hours": "Mon-Sat 10-8, Sun 11-7",
    "website": "http://www.chelseabicycles.net/",
    "longitude": -73.992497,
    "latitude": 40.7451,
    "foursquare_id": "4bd8c22711dcc9284aaef733",
    "foursquare_name": "Chelsea Bikes"
  },
  {
    "name": "Conrad's Bike Shop",
    "address": "25 Tudor City Pl, Manhattan, NY",
    "boro": "Manhattan",
    "storetype": 1,
    "hours": "Mon-Sat 11-7, Closed Sunday",
    "website": "http://www.conradsbikeshop.com/",
    "longitude": -73.97063,
    "latitude": 40.748523,
    "foursquare_id": "4b61d295f964a52035252ae3",
    "foursquare_name": "Conrad's Bike Shop"
  },
  {
    "name": "14th Street Metro Bicycles",
    "address": "332 E 14th St, Manhattan, NY",
    "boro": "Manhattan",
    "storetype": 3,
    "hours": "Mon-Sat 9:30-6:30, Sun 9:30-6",
    "website": "http://www.metrobicycles.com/",
    "longitude": -73.984167,
    "latitude": 40.731869
  },
  {
    "name": "Court Cycles",
    "address": "514 Court St, Brooklyn, NY",
    "boro": "Brooklyn",
    "storetype": 1,
    "hours": "M-F 10-7, Sat 10-6, Sun 11-3",
    "website": "",
    "longitude": -73.999023,
    "latitude": 40.676253,
    "foursquare_id": "50621ce5e4b092ceff74a9e3",
    "foursquare_name": "Court Cycles"
  },
  {
    "name": "Crosstown Bicycles",
    "address": "33 East 170th St, Bronx, NY",
    "boro": "Bronx",
    "storetype": 1,
    "hours": "M-Sat 10-7, Sun 11-5",
    "website": "",
    "longitude": -73.917028,
    "latitude": 40.84013
  },
  {
    "name": "Dixon's Bicycle Shop",
    "address": "792 Union St, Brooklyn, NY",
    "boro": "Brooklyn",
    "storetype": 1,
    "hours": "M-Sat 11-7, Sun 11-6",
    "website": "",
    "longitude": -73.976442,
    "latitude": 40.674695
  },
  {
    "name": "Eddie's Bicycles Shop",
    "address": "490 Amsterdam Ave, Manhattan, NY",
    "boro": "Manhattan",
    "storetype": 3,
    "hours": "M-F 9-7, Closed Sat, Sun 9:30-6",
    "website": "http://eddiesbicycles.net/",
    "longitude": -73.976324,
    "latitude": 40.786176
  },
  {
    "name": "Enoch's Bike Shop",
    "address": "480 10th Ave, Manhattan, NY",
    "boro": "Manhattan",
    "storetype": 3,
    "hours": "Everyday 11-6",
    "website": "",
    "longitude": -73.997711,
    "latitude": 40.756282,
    "foursquare_id": "51d48b59498ee198d09650ce",
    "foursquare_name": "Enoch's Bike Shop"
  },
  {
    "name": "Ferrara Cycle Shop",
    "address": "6304 20th Ave, Brooklyn, NY",
    "boro": "Brooklyn",
    "storetype": 1,
    "hours": "Everyday 8-6",
    "website": "",
    "longitude": -73.984814,
    "latitude": 40.617662,
    "foursquare_id": "5254644a498eadd80586fd0f",
    "foursquare_name": "Ferrara Cycle Shop"
  },
  {
    "name": "Fulton Bikes",
    "address": "1580 Fulton Street, Brooklyn, NY",
    "boro": "Brooklyn",
    "storetype": 1,
    "hours": "M-Sat 10-7, Sun 10-3",
    "website": "",
    "longitude": -73.93767,
    "latitude": 40.679596
  },
  {
    "name": "Frank's Bike Shop",
    "address": "553 Grand St, Manhattan, NY",
    "boro": "Manhattan",
    "storetype": 3,
    "hours": "M, Tue, Thu-Sat 9-7, Closed Wed, Sun 10-6",
    "website": "http://www.franksbikes.com/",
    "longitude": -73.980368,
    "latitude": 40.71395,
    "foursquare_id": "4ab64569f964a520637620e3",
    "foursquare_name": "Frank's Bike Shop"
  },
  {
    "name": "Graham's Bicycle Discount Center",
    "address": "178 Graham Ave, Brooklyn, NY",
    "boro": "Brooklyn",
    "storetype": 1,
    "hours": "Everyday 11-6",
    "website": "",
    "longitude": -73.943104,
    "latitude": 40.707816
  },
  {
    "name": "Canal Street Metro Bicycles",
    "address": "75 Varick Street, Manhattan, NY",
    "boro": "Manhattan",
    "storetype": 3,
    "hours": "Mon-Sat 10-6, Sun 10-5",
    "website": "http://www.metrobicycles.com/",
    "longitude": -74.00656979999997,
    "latitude": 40.7232293
  },
  {
    "name": "Grand Bicycle Center",
    "address": "70-13 Grand Ave, Queens, NY",
    "boro": "Queens",
    "storetype": 1,
    "hours": "Open 10am-6pm, Closed Sunday",
    "website": "http://www.grandbicycle.com/",
    "longitude": -73.89268,
    "latitude": 40.72776
  },
  {
    "name": "Cigi Bicycle Shop",
    "address": "42-20 111th St, Queens, NY",
    "boro": "Queens",
    "storetype": 1,
    "hours": "M-Sat 10:30-7, Sun 11-4",
    "website": "http://cigibicycleshop.com",
    "longitude": -73.85495630000003,
    "latitude": 40.749638,
    "foursquare_id": "4e19f024d4c062b044f67f34",
    "foursquare_name": "Cigi Bicycle Shop"
  },
  {
    "name": "Century Bicycle Shop",
    "address": "14-18 150th St, Queens, NY",
    "boro": "Queens",
    "storetype": 1,
    "hours": "Everyday 10-6",
    "website": "",
    "longitude": -73.81385499999999,
    "latitude": 40.788251
  },
  {
    "name": "Heavy Metal Bike Shop",
    "address": "2016 3 Ave, Manhattan, NY",
    "boro": "Manhattan",
    "storetype": 1,
    "hours": "M-Sat 10-7, Sun 12:30-5",
    "website": "",
    "longitude": -73.942618,
    "latitude": 40.794667,
    "foursquare_id": "4c194d9c834e2d7f2e322a80",
    "foursquare_name": "Heavy Metal Bike Shop"
  },
  {
    "name": "Jack Rabbit Sports",
    "address": "42 West 14th St, Manhattan, NY",
    "boro": "Manhattan",
    "storetype": 1,
    "hours": "Mon-Fri 11-8, Sat 10-8, Sun 11-7",
    "website": "http://www.jackrabbitsports.com",
    "longitude": -73.995105,
    "latitude": 40.736474
  },
  {
    "name": "Jack Rabbit Sports",
    "address": "151 7th Avenue, Brooklyn, NY",
    "boro": "Brooklyn",
    "storetype": 1,
    "hours": "Mon-Fri 11-8, Sat 10-8, Sun 11-7",
    "website": "http://www.jackrabbitsports.com",
    "longitude": -73.976831,
    "latitude": 40.672356
  },
  {
    "name": "Junior Bicycle Shop",
    "address": "1820 Amsterdam Ave, Manhattan, NY",
    "boro": "Manhattan",
    "storetype": 1,
    "hours": "M-Sat 10-8, Closed Sun",
    "website": "",
    "longitude": -73.945334,
    "latitude": 40.828589,
    "foursquare_id": "4be2017dae55a593185f5c62",
    "foursquare_name": "Junior Bicycle Shop"
  },
  {
    "name": "6th Ave Metro Bicycles",
    "address": "546 6th Ave, Manhattan, NY",
    "boro": "Manhattan",
    "storetype": 3,
    "hours": "Mon-Sat 9:30-6:30, Sun 9:30-6",
    "website": "http://www.metrobicycles.com/",
    "longitude": -73.996324,
    "latitude": 40.737791
  },
  {
    "name": "96th Street Metro Bikes",
    "address": "231 W 96th St, Manhattan, NY",
    "boro": "Manhattan",
    "storetype": 3,
    "hours": "Everyday 9:30-6:30",
    "website": "http://www.metrobicycles.com/",
    "longitude": -73.971233,
    "latitude": 40.794571
  },
  {
    "name": "A Bicycle Shop",
    "address": "163 W. 22nd Street, Manhattan, NY",
    "boro": "Manhattan",
    "storetype": 1,
    "hours": "Mon-Fri 9:30-7, Sat 9:30-6, Sun 12-5",
    "website": "http://www.a-bicycleshop.com/",
    "longitude": -73.994918,
    "latitude": 40.743077
  },
  {
    "name": "Affinity Cycles",
    "address": "616 Grand Street, Brooklyn, NY",
    "boro": "Brooklyn",
    "storetype": 1,
    "hours": "Wed-Mon 12-7, Tue 12-5",
    "website": "http://www.affinitycycles.com/",
    "longitude": -73.947584,
    "latitude": 40.711153
  },
  {
    "name": "Arc de Triomphe Bicycles",
    "address": "11401 Jamaica Ave, Queens, NY",
    "boro": "Queens",
    "storetype": 1,
    "hours": "M-F 12-6:30, Sat 11-5:30, Closed Sun",
    "website": "http://adtbikes.com/",
    "longitude": -73.822509,
    "latitude": 40.70176
  },
  {
    "name": "Arnold's Bicycles",
    "address": "4220 8th Ave, Brooklyn, NY",
    "boro": "Brooklyn",
    "storetype": 1,
    "hours": "M, Tue, Thu, Fri, Sat 10-6, Wed 12-6, Closed Sun",
    "website": "",
    "longitude": -73.999352,
    "latitude": 40.645512,
    "foursquare_id": "4b624730f964a520fa3f2ae3",
    "foursquare_name": "Arnold's Bicycles"
  },
  {
    "name": "Arrow Cycle Services",
    "address": "4053 White Plains Rd, Bronx, NY",
    "boro": "Bronx",
    "storetype": 1,
    "hours": "Mon-Sat 9-6, Closed Sun",
    "website": "http://www.arrowcycleinc.com/",
    "longitude": -73.859432,
    "latitude": 40.89009
  },
  {
    "name": "Bennett's Bicycles",
    "address": "517 Jewett Ave, Staten Island, NY",
    "boro": "Staten Island",
    "storetype": 1,
    "hours": "M, Tue, Thu, Fri 10-6, Closed Wed, Sat 10-5, Sun 12-3",
    "website": "",
    "longitude": -74.131858,
    "latitude": 40.624138,
    "foursquare_id": "4ce2f44747d5a143752e071d",
    "foursquare_name": "Bennett's Bicycles"
  },
  {
    "name": "Bicycle Doctor",
    "address": "133 Grand St, Brooklyn, NY",
    "boro": "Brooklyn",
    "storetype": 1,
    "hours": "Mon-Tue & Thu-Fri 12-7, Sat 10-6, Sun 12-5, Closed Wednesday",
    "website": "http://www.brooklynbikedoctor.com/",
    "longitude": -73.962367,
    "latitude": 40.715086
  },
  {
    "name": "Bicycle Habitat",
    "address": "244 Lafayette St, Manhattan, NY",
    "boro": "Manhattan",
    "storetype": 1,
    "hours": "Mon-Thu 10-7, Fri 10-6:30, Sat-Sun 10-6",
    "website": "http://bicyclehabitat.com/",
    "longitude": -73.997079,
    "latitude": 40.722897,
    "foursquare_id": "51436c82e4b0f685d8651ee3",
    "foursquare_name": "Bicycle Habitat"
  },
  {
    "name": "Bicycle Renaissance",
    "address": "430 Columbus Ave, Manhattan, NY",
    "boro": "Manhattan",
    "storetype": 1,
    "hours": "Mon-Fri 10:30-7, Sat-Sun 10-5",
    "website": "http://bicyclerenaissance.com/",
    "longitude": -73.974878,
    "latitude": 40.78306,
    "foursquare_id": "4a4e828ef964a52091ae1fe3",
    "foursquare_name": "Bicycle Renaissance"
  },
  {
    "name": "Bicycle Station",
    "address": "171 Park Avenue, Brooklyn, NY",
    "boro": "Brooklyn",
    "storetype": 1,
    "hours": "Closed Mon, Tue-Fri 11-7, Sat 10-7, Sun 11-4",
    "website": "http://www.bicyclestationbrooklyn.com/",
    "longitude": -73.972628,
    "latitude": 40.696275,
    "foursquare_id": "4b250ca4f964a520a86b24e3",
    "foursquare_name": "Bicycle Station"
  },
  {
    "name": "Bike Central Park, Inc.",
    "address": "221 West 58th Street, Manhattan, NY",
    "boro": "Manhattan",
    "storetype": 2,
    "hours": "Bike Rental Reservations Only",
    "website": "http://bikecentralpark.com/",
    "longitude": -73.98041,
    "latitude": 40.76671
  },
  {
    "name": "Bike Heaven",
    "address": "348 E 62nd St, Manhattan, NY",
    "boro": "Manhattan",
    "storetype": 1,
    "hours": "Mon-Fri 10-7, Sat-Sun 9-5",
    "website": "",
    "longitude": -73.961551,
    "latitude": 40.761734,
    "foursquare_id": "4bcb319b3740b7132ced6165",
    "foursquare_name": "Bike Heaven"
  },
  {
    "name": "Bike Shop",
    "address": "4026 Hylan Blvd, Staten Island, NY",
    "boro": "Staten Island",
    "storetype": 1,
    "hours": "Mon-Sat 10-6, Sun 10-2",
    "website": "",
    "longitude": -74.146402,
    "latitude": 40.541538,
    "foursquare_id": "4b4c10f1f964a520d5ad26e3",
    "foursquare_name": "Bike Shop"
  },
  {
    "name": "Bike Works",
    "address": "106 Ridge St, Manhattan, NY",
    "boro": "Manhattan",
    "storetype": 1,
    "hours": "Thu-Sat & Mon-Tue 11-6, Sun 12-5, Closed Wed",
    "website": "http://www.bikecult.com/works/",
    "longitude": -73.983134,
    "latitude": 40.718712,
    "foursquare_id": "51aa6632498e877bbdfdffc5",
    "foursquare_name": "Bike Works"
  },
  {
    "name": "Larry's Cycle Shop",
    "address": "1854 Flatbush Ave, Brooklyn, NY",
    "boro": "Brooklyn",
    "storetype": 1,
    "hours": "Mon-Fri 10-6, Sat 10-5, Sun 10-3",
    "website": "http://www.larryscycleshop.com",
    "longitude": -73.939113,
    "latitude": 40.624528,
    "foursquare_id": "4b4c120af964a520e4ad26e3",
    "foursquare_name": "Larry's Cycle Shop"
  },
  {
    "name": "NYCeWheels",
    "address": "1603 York Ave, Manhattan, NY",
    "boro": "Manhattan",
    "storetype": 1,
    "hours": "Mon-Sat 11-7, Closed Sunday",
    "website": "http://nycewheels.com/",
    "longitude": -73.947968,
    "latitude": 40.775052,
    "foursquare_id": "4c2cae6277cfe21eed5bb6f1",
    "foursquare_name": "NYCeWheels"
  },
  {
    "name": "Jeff's Bicycles NYC",
    "address": "1400 3rd Ave, Manhattan, NY",
    "boro": "Manhattan",
    "storetype": 3,
    "hours": "Everyday 10-7",
    "website": "http://bicyclesnyc.com/",
    "longitude": -73.957181,
    "latitude": 40.774716
  },
  {
    "name": "Kissena Bicycle Center",
    "address": "4570 Kissena Blvd, Flushing, NY",
    "boro": "Flushing",
    "storetype": 1,
    "hours": "M-Sat 10-7, Sun 11-5",
    "website": "",
    "longitude": -73.8193781,
    "latitude": 40.75069060000001
  },
  {
    "name": "Bicycle Barn",
    "address": "107-34 Springfield Blvd, Queens Village, NY",
    "boro": "Queens Village",
    "storetype": 1,
    "hours": "M-F 10-7, Sat 10-6, Sun 12-5",
    "website": "http://bicyclebarn.services.officelive.com/default.aspx",
    "longitude": -73.7380354,
    "latitude": 40.7094757,
    "foursquare_id": "4bed8c8f91380f470712a018",
    "foursquare_name": "Bicycle Barn"
  },
  {
    "name": "Bellitte Bicycles",
    "address": "169-20 Jamaica Ave, Jamaica, NY",
    "boro": "Jamaica",
    "storetype": 1,
    "hours": "Seasonal",
    "website": "http://www.bellbikes.com",
    "longitude": -73.790028,
    "latitude": 40.7069308,
    "foursquare_id": "4d7f620dcd09224bada95a30",
    "foursquare_name": "Bellitte Bicycles"
  },
  {
    "name": "Ride Brooklyn",
    "address": "468 Bergen St, Brooklyn, NY",
    "boro": "Brooklyn",
    "storetype": 3,
    "hours": "M-Thu 10-7, F 10-8, Sat 10-6, Sun 11-6",
    "website": "http://www.ridebrooklynny.com",
    "longitude": -73.97597,
    "latitude": 40.680916,
    "foursquare_id": "4a58de9cf964a52014b81fe3",
    "foursquare_name": "Ride Brooklyn"
  },
  {
    "name": "Peak Mountain Bike Shop",
    "address": "42-42 235th Street, Queens, NY",
    "boro": "Queens",
    "storetype": 3,
    "hours": "Tues-Fri 11am-8pm, Sat 10am-6pm, Sun 11am-5pm, Mon - Closed",
    "website": "http://www.peakmtnbike.com",
    "longitude": -73.7478428,
    "latitude": 40.767613
  },
  {
    "name": "Brooklyn Bike and Board",
    "address": "560 Vanderbilt Avenue, Brooklyn, NY",
    "boro": "Brooklyn",
    "storetype": 3,
    "hours": "Open 9am to 9pm, 7 days a week",
    "website": "http://www.brooklynbikeandboard.com",
    "longitude": -73.968258,
    "latitude": 40.679884
  },
  {
    "name": "The Hub",
    "address": "73 Morton Street, Manhattan, NY",
    "boro": "Manhattan",
    "storetype": 3,
    "hours": "Everyday 10-8",
    "website": "",
    "longitude": -74.007028,
    "latitude": 40.730934,
    "foursquare_id": "4c0ec077d64c0f47f8b4285d",
    "foursquare_name": "The Hub"
  },
  {
    "name": "Adeline Adeline",
    "address": "147 Reade Street, Manhatan, NY",
    "boro": "Manhatan",
    "storetype": 3,
    "hours": "Tue-Fri 12pm - Sundown, Sat-Sun 11am - Sundown",
    "website": "http://www.adelineadeline.com",
    "longitude": -74.0098392963,
    "latitude": 40.7164360994,
    "foursquare_id": "4baf8a6df964a520be083ce3",
    "foursquare_name": "Adeline Adeline"
  },
  {
    "name": "Crooked Front Wheel (a guy on the street)",
    "address": "NE Corner of Houston and 2nd Ave, , NY",
    "boro": "",
    "storetype": 1,
    "hours": "During the summer, most of the day",
    "website": "",
    "longitude": -73.990855,
    "latitude": 40.723798
  },
  {
    "name": "Spokesman Cycles",
    "address": "80-16 Cooper Avenue, Queens, NY",
    "boro": "Queens",
    "storetype": 3,
    "hours": "Mon-Sat 10AM-9PM ; Sun 11AM-8PM",
    "website": "http://www.spokesmancycles.com",
    "longitude": -73.86954,
    "latitude": 40.70924,
    "foursquare_id": "4af6f51df964a5205b0422e3",
    "foursquare_name": "Spokesman Cycles"
  },
  {
    "name": "Spokesman Cycles",
    "address": "34 Irving Place, Manhattan, NY",
    "boro": "Manhattan",
    "storetype": 3,
    "hours": "Open daily 10AM to 9PM",
    "website": "http://spokesmancycles.com",
    "longitude": -73.987684,
    "latitude": 40.735299,
    "foursquare_id": "4af6f51df964a5205b0422e3",
    "foursquare_name": "Spokesman Cycles"
  },
  {
    "name": "Bikes on Myrtle",
    "address": "478 Myrtle Ave, Brooklyn, NY",
    "boro": "Brooklyn",
    "storetype": 1,
    "hours": "Everyday 10-7",
    "website": "",
    "longitude": -73.9661,
    "latitude": 40.6933
  },
  {
    "name": "Bike and Roll Family Bike Center",
    "address": "Building 515,\nHay Road, Gov Island, NY",
    "boro": "Gov Island",
    "storetype": 2,
    "hours": "Friday: 10-4:30, Sat/Sun 10-6:30",
    "website": "http://www.bikeandroll.com/newyork/index.html",
    "longitude": -74.019273,
    "latitude": 40.691914
  },
  {
    "name": "Bike and Roll Adult Bike Express",
    "address": "Pershing Hall, Andes Road, Gov Island, NY",
    "boro": "Gov Island",
    "storetype": 2,
    "hours": "Friday: 10-4:30, Sat/Sun 10-6:30",
    "website": "http://www.bikeandroll.com/newyork/index.html",
    "longitude": -74.013932,
    "latitude": 40.691324
  },
  {
    "name": "New Bo Bo Toys Co",
    "address": "96 Elizabeth Street, Manhattan, NY",
    "boro": "Manhattan",
    "storetype": 1,
    "hours": "9:00a - 8:00p (7 days/week)",
    "website": "http://newbobotoys.com/",
    "longitude": -73.9958,
    "latitude": 40.71838
  },
  {
    "name": "NYC Bicycle Shop",
    "address": "1178 Bay Street , Staten Island, NY",
    "boro": "Staten Island",
    "storetype": 3,
    "hours": "M-F 10-7, Sat 10-5, Sun 11-5",
    "website": "http://www.nycbicycleshop.com/",
    "longitude": -74.066667,
    "latitude": 40.614357,
    "foursquare_id": "5248881611d233270e39da4d",
    "foursquare_name": "NYC Bicycle Shop"
  },
  {
    "name": "Zen Bikes",
    "address": "134 West 24 Street, Manhattan, NY",
    "boro": "Manhattan",
    "storetype": 1,
    "hours": "Mon-Sat 10-7, Sun 10-5",
    "website": "http://zenbikes.com/",
    "longitude": -73.99389,
    "latitude": 40.74411,
    "foursquare_id": "4bc0ef3bf8219c748085b210",
    "foursquare_name": "Zen Bikes"
  },
  {
    "name": "Bike Life",
    "address": "56 Lincoln Rd, Brooklyn, NY",
    "boro": "Brooklyn",
    "storetype": 1,
    "hours": "",
    "website": "",
    "longitude": -73.96099770000001,
    "latitude": 40.66090070000001,
    "foursquare_id": "4bca2583b6c49c74a1e28f91",
    "foursquare_name": "Bike Life"
  },
  {
    "name": "Spin City Cycles",
    "address": "98-73 Queens Blvd, Queens, NY",
    "boro": "Queens",
    "storetype": 1,
    "hours": "Mon-Wed, 11-7, Thu-Fri 11-7:30, Sat-Sun 10-6",
    "website": "http://spincitycycle.com/",
    "longitude": -73.85541,
    "latitude": 40.7278
  },
  {
    "name": "Bicycle Habitat",
    "address": "476 Fifth Avenue, Brooklyn, NY",
    "boro": "Brooklyn",
    "storetype": 1,
    "hours": "M-F 11a-8p, Sa 11a-7p, Su 12p-6p",
    "website": "http://bicyclehabitat.com",
    "longitude": -73.98728,
    "latitude": 40.66815,
    "foursquare_id": "51436c82e4b0f685d8651ee3",
    "foursquare_name": "Bicycle Habitat"
  },
  {
    "name": "Bushwick Bike Shop",
    "address": "1345 Dekalb Avenue, Brooklyn, NY",
    "boro": "Brooklyn",
    "storetype": 1,
    "hours": "Open 12-8 everyday, except Tuesdays and Sundays",
    "website": "http://www.velobrooklyn.com",
    "longitude": -73.924658,
    "latitude": 40.698555
  },
  {
    "name": "Bike and Roll",
    "address": "12th Avenue and 43rd street, Manhattan, NY",
    "boro": "Manhattan",
    "storetype": 2,
    "hours": "Everyday 9-7",
    "website": "http://www.bikeandroll.com/newyork/index.html",
    "longitude": -73.993934,
    "latitude": 40.77184,
    "foursquare_id": "4bdb5e33f1499c74bc4d38f3",
    "foursquare_name": "Bike and Roll"
  },
  {
    "name": "Bay Ridge Bicycle World",
    "address": "8916 3rd Avenue, Brooklyn, NY",
    "boro": "Brooklyn",
    "storetype": 1,
    "hours": "Everyday 10-8",
    "website": "http://www.bayridgebikes.com",
    "longitude": -74.03210200000001,
    "latitude": 40.62107,
    "foursquare_id": "4a59697ef964a5205cb91fe3",
    "foursquare_name": "Bay Ridge Bicycle World"
  },
  {
    "name": "Red Lantern",
    "address": "345 Myrtle Avenue, Brooklyn, NY",
    "boro": "Brooklyn",
    "storetype": 1,
    "hours": "Everyday 9-9",
    "website": "http://www.redlanternbicycles.com/",
    "longitude": -73.97239880000001,
    "latitude": 40.6934188,
    "foursquare_id": "4f1c513ae4b095bc469f12e1",
    "foursquare_name": "Red Lantern"
  },
  {
    "name": "Bike and Roll",
    "address": "West 67th Street at Central Park West, Manhattan, NY",
    "boro": "Manhattan",
    "storetype": 2,
    "hours": "Mon-Sat 9-5, Sun 10-6",
    "website": "http://www.bikenewyorkcity.com/",
    "longitude": -73.97682,
    "latitude": 40.77251,
    "foursquare_id": "4c7046f6d97fa14367a5f5ca",
    "foursquare_name": "Bike and Roll"
  },
  {
    "name": "Bike and Roll",
    "address": "At the southern end of West St, Manhattan, NY",
    "boro": "Manhattan",
    "storetype": 2,
    "hours": "Various. See website.",
    "website": "http://www.bikenewyorkcity.com/",
    "longitude": -74.01709,
    "latitude": 40.70442,
    "foursquare_id": "4c7046f6d97fa14367a5f5ca",
    "foursquare_name": "Bike and Roll"
  },
  {
    "name": "Eduardo's Bicycle Shop",
    "address": "2131 2nd Ave, Manhattan, NY",
    "boro": "Manhattan",
    "storetype": 1,
    "hours": "Mon-Thu 10-7, Fri 10-6:30, Sun 10-5",
    "website": "",
    "longitude": -73.94085459999997,
    "latitude": 40.7929006
  },
  {
    "name": "Silk Road Cycles",
    "address": "76 Franklin St, Brooklyn, NY",
    "boro": "Brooklyn",
    "storetype": 1,
    "hours": "Mon-Sat 11-7, Sun 12-7",
    "website": "http://www.silkroadcycles.net/",
    "longitude": -73.95689800000002,
    "latitude": 40.72720289999999,
    "foursquare_id": "4debe2f4d164ef597d1137b4",
    "foursquare_name": "Silk Road Cycles"
  },
  {
    "name": "Central Park Sightseeing",
    "address": "56 West 56th St, Manhattan, NY",
    "boro": "Manhattan",
    "storetype": 2,
    "hours": "Everyday 8-8",
    "website": "http://www.centralparksightseeing.com",
    "longitude": -73.977082,
    "latitude": 40.763143,
    "foursquare_id": "4deaab85d22da22d4edad90b",
    "foursquare_name": "Central Park Sightseeing"
  },
  {
    "name": "Innovation Bike Shop",
    "address": "105 W 106th St, Manhattan, NY",
    "boro": "Manhattan",
    "storetype": 3,
    "hours": "Mon-Fri 10-8, Sat-Sun 10-6",
    "website": "http://www.innovationbikeshop.com",
    "longitude": -73.96314999999998,
    "latitude": 40.7995734,
    "foursquare_id": "4bc24686f8219c748ba0b410",
    "foursquare_name": "Innovation Bike Shop"
  },
  {
    "name": "Master Bike Shop",
    "address": "265 West 72nd St, Manhattan, NY",
    "boro": "Manhattan",
    "storetype": 3,
    "hours": "",
    "website": "http://www.masterbikeshop.com/",
    "longitude": -73.98403769999999,
    "latitude": 40.7796434,
    "foursquare_id": "4dd9652845ddced820b70864",
    "foursquare_name": "Master Bike Shop"
  },
  {
    "name": "City Bicycles",
    "address": "315 W 38th St, Manhattan, NY",
    "boro": "Manhattan",
    "storetype": 3,
    "hours": "Mon-Fri 9-6:30, Sat 10-5, Closed Sun",
    "website": "http://www.citybicyclesnyc.com/",
    "longitude": -73.992157,
    "latitude": 40.755092,
    "foursquare_id": "537b8ecd498e9a76c5333083",
    "foursquare_name": "City Bicycles"
  },
  {
    "name": "Chari & Co NYC",
    "address": "175 Stanton St, Manhattan, NY",
    "boro": "Manhattan",
    "storetype": 3,
    "hours": "Mon-Sat 11-7, Sun 12-6",
    "website": "http://www.chariandconyc.com",
    "longitude": -73.98421910000002,
    "latitude": 40.7200992
  },
  {
    "name": "Landmark Vintage Bicycles",
    "address": "136 East 3rd, Manhattan, NY",
    "boro": "Manhattan",
    "storetype": 1,
    "hours": "",
    "website": "http://landmarkbicycles.com",
    "longitude": -73.9855996,
    "latitude": 40.7237683,
    "foursquare_id": "4a2d727bf964a520b2971fe3",
    "foursquare_name": "Landmark Vintage Bicycles"
  },
  {
    "name": "Hudson Urban Bicycles",
    "address": "139 Charles St, Manhattan, NY",
    "boro": "Manhattan",
    "storetype": 3,
    "hours": "Mon-Sat 9-7, Sun 10-7",
    "website": "http://hudsonurbanbicycles.com/",
    "longitude": -74.00816299999997,
    "latitude": 40.7342313,
    "foursquare_id": "4c118056f6ba9c7447c01874",
    "foursquare_name": "Hudson Urban Bicycles"
  },
  {
    "name": "Central Park Bicycle Shop",
    "address": "315 West 57th St, Manhattan, NY",
    "boro": "Manhattan",
    "storetype": 1,
    "hours": "",
    "website": "",
    "longitude": -73.98390799999999,
    "latitude": 40.767087,
    "foursquare_id": "4bc0b0ddf8219c748bf8b110",
    "foursquare_name": "Central Park Bicycle Shop"
  },
  {
    "name": "Eastern Mountain Sports",
    "address": "530 Broadway, Manhattan, NY",
    "boro": "Manhattan",
    "storetype": 1,
    "hours": "Mon-Fri 10-9:30, Sat 10-9, Sun 11-8",
    "website": "http://www.ems.com",
    "longitude": -73.99862250000001,
    "latitude": 40.7230775,
    "foursquare_id": "4b940093f964a520616034e3",
    "foursquare_name": "Eastern Mountain Sports"
  },
  {
    "name": "Eastern Mountain Sports",
    "address": "2152 Broadway, Manhattan, NY",
    "boro": "Manhattan",
    "storetype": 1,
    "hours": "Mon-Sat 10-9, Sun 11-8",
    "website": "http://www.ems.com",
    "longitude": -73.98103309999999,
    "latitude": 40.78146479999999,
    "foursquare_id": "4b940093f964a520616034e3",
    "foursquare_name": "Eastern Mountain Sports"
  },
  {
    "name": "REI",
    "address": "The Puck Building, Manhattan, NY",
    "boro": "Manhattan",
    "storetype": 1,
    "hours": "Mon-Sat 10-9, Sun 11-8",
    "website": "http://www.rei.com/stores/142",
    "longitude": -73.99539909999999,
    "latitude": 40.724506,
    "foursquare_id": "4e4e2e1662844166697bd28c",
    "foursquare_name": "REI"
  },
  {
    "name": "Al's Cycle Solutions",
    "address": "693 10th Ave, Manhattan, NY",
    "boro": "Manhattan",
    "storetype": 3,
    "hours": "Mon-Sat 10-7, Sun 11-6",
    "website": "http://www.alscyclesolutions.com",
    "longitude": -73.99320130000001,
    "latitude": 40.7631382,
    "foursquare_id": "4b956f3ff964a52066a234e3",
    "foursquare_name": "Al's Cycle Solutions"
  },
  {
    "name": "Echelon Cycles",
    "address": "51 8th Ave, Manhattan, NY",
    "boro": "Manhattan",
    "storetype": 3,
    "hours": "Mon-Fri 10-7, Sat 9-7, Sun 10-5",
    "website": "http://www.echeloncyclesnyc.com/",
    "longitude": -74.00390679999998,
    "latitude": 40.7383931,
    "foursquare_id": "4bd234e0462cb7138ce6db07",
    "foursquare_name": "Echelon Cycles"
  },
  {
    "name": "Swim Bike Run",
    "address": "203 W 58th St, Manhattan, NY",
    "boro": "Manhattan",
    "storetype": 1,
    "hours": "Mon-Sat 9-8, Sun 11-6",
    "website": "http://www.sbrshop.com",
    "longitude": -73.9798156,
    "latitude": 40.7663305
  },
  {
    "name": "Bike Rental Central Park",
    "address": "348 W 57 St, Manhattan, NY",
    "boro": "Manhattan",
    "storetype": 2,
    "hours": "Everyday 7:30AM-Midnight",
    "website": "http://www.bikerentalcentralpark.com/",
    "longitude": -73.9850424,
    "latitude": 40.7675391,
    "foursquare_id": "4c5dba1794fd0f47a749cc45",
    "foursquare_name": "Bike Rental Central Park"
  },
  {
    "name": "Dah Shop",
    "address": "134 Division St, Manhattan, NY",
    "boro": "Manhattan",
    "storetype": 1,
    "hours": "Mon-Sat 11-7, Sun 12-6",
    "website": "http://www.dahshop.com/",
    "longitude": -73.99174110000001,
    "latitude": 40.7145297,
    "foursquare_id": "49f38ae0f964a520b56a1fe3",
    "foursquare_name": "Dah Shop"
  },
  {
    "name": "NYC Bicycle Shop",
    "address": "250 West 49th St, Manhattan, NY",
    "boro": "Manhattan",
    "storetype": 3,
    "hours": "Everyday 8:30-8",
    "website": "http://www.nycbicycleshop.com/",
    "longitude": -73.9859407,
    "latitude": 40.7613027,
    "foursquare_id": "5248881611d233270e39da4d",
    "foursquare_name": "NYC Bicycle Shop"
  },
  {
    "name": "Bike Stop",
    "address": "37-19 28th Ave, Astoria, NY",
    "boro": "Astoria",
    "storetype": 1,
    "hours": "Everyday 10-6",
    "website": "http://www.bikestopastoria.com",
    "longitude": -73.91401280000002,
    "latitude": 40.7656581,
    "foursquare_id": "4beee4a42c082d7f30103142",
    "foursquare_name": "Bike Stop"
  },
  {
    "name": "Bill's Cyclery",
    "address": "63-24 Roosevelt Ave, Woodside, NY",
    "boro": "Woodside",
    "storetype": 1,
    "hours": "Mon-Fri 10-7, Sat 10-6, Sun 11-3",
    "website": "http://ubuybikes.com/",
    "longitude": -73.90024599999998,
    "latitude": 40.745793,
    "foursquare_id": "4c2a6760b34ad13a6936e8ce",
    "foursquare_name": "Bill's Cyclery"
  },
  {
    "name": "L.I.C. Bicycles",
    "address": "25-11 Queens Plaza, Queens, NY",
    "boro": "Queens",
    "storetype": 3,
    "hours": "Mon-Fri 9:15-7, Sat 10-6, Closed Sun",
    "website": "http://longislandcitybikes.wordpress.com/",
    "longitude": -73.93950510000002,
    "latitude": 40.7506568,
    "foursquare_id": "4ab018aaf964a520dc6520e3",
    "foursquare_name": "L.I.C. Bicycles"
  },
  {
    "name": "Cigi Bicycle Shop",
    "address": "91-07 37th Ave, Queens, NY",
    "boro": "Queens",
    "storetype": 1,
    "hours": "M-Sat 10:30-7, Sat 10-7, Sun 11-4",
    "website": "http://cigibicycleshop.com",
    "longitude": -73.87560659999997,
    "latitude": 40.7507745,
    "foursquare_id": "4e19f024d4c062b044f67f34",
    "foursquare_name": "Cigi Bicycle Shop"
  },
  {
    "name": "PM Bikes",
    "address": "92-64 Queens Blvd, Queens, NY",
    "boro": "Queens",
    "storetype": 1,
    "hours": "Everyday 10-5:30",
    "website": "http://pmbicycles.com",
    "longitude": -73.86740279999998,
    "latitude": 40.7320539
  },
  {
    "name": "ADT Bike and Skate Shop",
    "address": "114-01 Jamaica Ave, Richmond Hill, NY",
    "boro": "Richmond Hill",
    "storetype": 1,
    "hours": "Call for hours",
    "website": "http://www.adtbikes.com/",
    "longitude": -73.84529629999997,
    "latitude": 40.69517829999999
  },
  {
    "name": "Mini Mall Bike Shop",
    "address": "430 Beach 129th Street, Far Rockaway, NY",
    "boro": "Far Rockaway",
    "storetype": 1,
    "hours": "",
    "website": "",
    "longitude": -73.849086,
    "latitude": 40.577333
  },
  {
    "name": "Bicycle Repairman",
    "address": "40-21a 35th Ave, Astoria, NY",
    "boro": "Astoria",
    "storetype": 1,
    "hours": "",
    "website": "",
    "longitude": -73.91983800000003,
    "latitude": 40.754236
  },
  {
    "name": "Bike Doctor NYC / Bike Rental Manhattan",
    "address": "186 W 134th St, Manhattan, NY",
    "boro": "Manhattan",
    "storetype": 3,
    "hours": "by appointment only - we'll come to you",
    "website": "http://www.bikerentalmanhattan.com/",
    "longitude": -73.943541,
    "latitude": 40.814099
  },
  {
    "name": "Fulton Bikes",
    "address": "997 Fulton St, Brooklyn, NY",
    "boro": "Brooklyn",
    "storetype": 3,
    "hours": "Mon-Thur 10-8:30, Fri-Sat 10-7:30, Sun 12-5",
    "website": "",
    "longitude": -73.96297370000002,
    "latitude": 40.6827902
  },
  {
    "name": "Central Park Bikes",
    "address": "60th St and Broadway, Manhattan, NY",
    "boro": "Manhattan",
    "storetype": 3,
    "hours": "Everyday 9-7",
    "website": "http://centralparkbikes.com",
    "longitude": -73.98198990000003,
    "latitude": 40.7688468,
    "foursquare_id": "511e03ea582f44ff715e89f3",
    "foursquare_name": "Central Park Bikes"
  },
  {
    "name": "Danny's Cycles",
    "address": "1690 2nd Ave, Manhattan, NY",
    "boro": "Manhattan",
    "storetype": 1,
    "hours": "Mon-Fri 10-8, Sat-Sun 10-7",
    "website": "www.dannyscycles.com",
    "longitude": -73.9509151,
    "latitude": 40.778603,
    "foursquare_id": "4feb10fa3950cf338e7b0b95",
    "foursquare_name": "Danny's Cycles"
  },
  {
    "name": "Chcycles",
    "address": "537 Empire Blvd , Brooklyn, NY",
    "boro": "Brooklyn",
    "storetype": 3,
    "hours": "Sun-Thu 10-8, Fri 10-1, Closed Sat",
    "website": "http://www.chcycles.com",
    "longitude": -73.94439869999997,
    "latitude": 40.6642976
  },
  {
    "name": "Bike Smith",
    "address": "149 Smith St, Brooklyn, NY",
    "boro": "Brooklyn",
    "storetype": 3,
    "hours": "Mon-Sat 9-9, Sun 9-5 (or so)",
    "website": "",
    "longitude": -73.99044679999997,
    "latitude": 40.6865996,
    "foursquare_id": "4f63b594e4b0cded5bc9a3f2",
    "foursquare_name": "Bike Smith"
  },
  {
    "name": "",
    "address": "1078 Fulton Street, Brooklyn, NY",
    "boro": "Brooklyn",
    "storetype": 1,
    "hours": "",
    "website": " http://www.facebook.com/BicycleRoots",
    "longitude": -73.95769989999997,
    "latitude": 40.6815564
  },
  {
    "name": "Dog Day Cyclery",
    "address": "115 Van Brunt Street, Brooklyn, NY",
    "boro": "Brooklyn",
    "storetype": 3,
    "hours": "Tue-Sat 10-6, Sun 10-4, Mon 10-8",
    "website": "http://dogdaycyclery.com",
    "longitude": -74.0052331,
    "latitude": 40.6846574,
    "foursquare_id": "4e32ea5e7d8bf5432e419965",
    "foursquare_name": "Dog Day Cyclery"
  },
  {
    "name": "Bike Slug",
    "address": "1050 Bedford Ave, Brooklyn, NY",
    "boro": "Brooklyn",
    "storetype": 1,
    "hours": "Mon, Wed, Thur, Fri 11-9, Sat, Sun 10-6, Closed Tue",
    "website": "http://www.bikeslug.com/store.html",
    "longitude": -73.95533,
    "latitude": 40.689003,
    "foursquare_id": "4fada22be4b0e047b1bd7dc1",
    "foursquare_name": "Bike Slug"
  },
  {
    "name": "Paul's Bicycle Shop",
    "address": "163 Beach 116th St, Rockaway Beach, NY",
    "boro": "Rockaway Beach",
    "storetype": 3,
    "hours": "M-F 10-7, Sat 10-5, Closed Sun",
    "website": "",
    "longitude": -73.83694880000002,
    "latitude": 40.5790763
  },
  {
    "name": "Rolling Orange Bikes",
    "address": "269 Baltic Street, Brooklyn, NY",
    "boro": "Brooklyn",
    "storetype": 3,
    "hours": "closed Mon, Tue-Fri 12:30-7:30, 11-7:30 Sat-Sun",
    "website": "http://www.rollingorangebikes.com/",
    "longitude": -73.99382,
    "latitude": 40.685731,
    "foursquare_id": "4c13cc167f7f2d7f16b6df68",
    "foursquare_name": "Rolling Orange Bikes"
  },
  {
    "name": "Elias Bicycle Shop",
    "address": "39-24 108th St, Corona, NY",
    "boro": "Corona",
    "storetype": 1,
    "hours": "",
    "website": "",
    "longitude": -73.858833,
    "latitude": 40.7506856,
    "foursquare_id": "4f93163ae4b03742d9ed305e",
    "foursquare_name": "Elias Bicycle Shop"
  },
  {
    "name": "Excelsior Bike Shop",
    "address": "694 Franklin Ave, Brooklyn, NY",
    "boro": "Brooklyn",
    "storetype": 1,
    "hours": "M-F 10:30-7, Sat 10-6, Sun 11-5",
    "website": "http://www.9thstreetcycles.com",
    "longitude": -73.95675699999998,
    "latitude": 40.674751,
    "foursquare_id": "4fa6b1efe4b08e1f89c4550f",
    "foursquare_name": "Excelsior Bike Shop"
  },
  {
    "name": "9th St Cycles",
    "address": "375 9th Street, Brooklyn, NY",
    "boro": "Brooklyn",
    "storetype": 3,
    "hours": "M-F 10:30-7, Sat 10-6, Sun 11-5",
    "website": "http://www.9thstreetcycles.com/",
    "longitude": -73.9839895,
    "latitude": 40.6682443
  },
  {
    "name": "Papillionaire Bicycles",
    "address": "390 Van Brunt St, Brooklyn, NY",
    "boro": "Brooklyn",
    "storetype": 1,
    "hours": "Tue, Thu-Sun 12-6, Closed other days",
    "website": "http://www.papillionaire.com",
    "longitude": -74.01366589999998,
    "latitude": 40.6767036
  },
  {
    "name": "Zukkies Bike Shop",
    "address": "279 Bushwick Avenue, Brooklyn, NY",
    "boro": "Brooklyn",
    "storetype": 1,
    "hours": "",
    "website": "http://zukkies.com",
    "longitude": -73.9395285,
    "latitude": 40.706479,
    "foursquare_id": "4ab3b608f964a5201e6e20e3",
    "foursquare_name": "Zukkies Bike Shop"
  },
  {
    "name": "Bike Ahead",
    "address": "386 Broadway, Brooklyn, NY",
    "boro": "Brooklyn",
    "storetype": 1,
    "hours": "Sun-Thur 10-7",
    "website": "",
    "longitude": -73.95474100000001,
    "latitude": 40.7071881
  },
  {
    "name": "Ride Brooklyn Williamsburg",
    "address": "50 N 7th St, Brooklyn, NY",
    "boro": "Brooklyn",
    "storetype": 1,
    "hours": "M-F 10-7, Sat 10-6, Sun 11-6",
    "website": "http://ridebrooklynny.com",
    "longitude": -73.96211970000002,
    "latitude": 40.7205573,
    "foursquare_id": "508b3e52e4b07c9fb078ce40",
    "foursquare_name": "Ride Brooklyn Williamsburg"
  },
  {
    "name": "Juice Pedaler",
    "address": "154 Prospect Park Southwest, Brooklyn, NY",
    "boro": "Brooklyn",
    "storetype": 3,
    "hours": "Sun-Thur 8-6, Fri-Sat 8-7",
    "website": "https://store.juicepedalernyc.com/",
    "longitude": -73.97370999999998,
    "latitude": 40.654881,
    "foursquare_id": "5067655ae4b0da82c68f2a4d",
    "foursquare_name": "Juice Pedaler"
  },
  {
    "name": "Redbeard Bikes",
    "address": "165 Front Street, Brooklyn, NY",
    "boro": "Brooklyn",
    "storetype": 1,
    "hours": "Mon-Tue 12-8, Thur-Fri 11-7, Sat-Sun 11-6, Closed Wed",
    "website": "http://redbeardbikes.com/",
    "longitude": -73.98664810000002,
    "latitude": 40.7024365,
    "foursquare_id": "50b3cde6e4b0065e6284dc77",
    "foursquare_name": "Redbeard Bikes"
  },
  {
    "name": "Talent Cycles",
    "address": "502 W 139th St, New York, NY",
    "boro": "New York",
    "storetype": 3,
    "hours": "Everyday 10-8",
    "website": "http://talentcyclesny.com/",
    "longitude": -73.9507625,
    "latitude": 40.8215347,
    "foursquare_id": "51840036498e9f0a3d468438",
    "foursquare_name": "Talent Cycles"
  },
  {
    "name": "Bicycle Roots",
    "address": "609 Nostrand Avenue, Brooklyn, NY",
    "boro": "Brooklyn",
    "storetype": 1,
    "hours": "Tue-Fri 10-7, Sat 11-6, Sun 11-5, Closed Mon",
    "website": "http://www.bicycleroots.com",
    "longitude": -73.94961,
    "latitude": 40.676344,
    "foursquare_id": "4faeddffe4b04792c39a0aa3",
    "foursquare_name": "Bicycle Roots"
  },
  {
    "name": "Bikesmith II",
    "address": "667 Grand St, New York, NY",
    "boro": "New York",
    "storetype": 1,
    "hours": "",
    "website": "https://www.facebook.com/pages/Bikesmith-II/121743514675682",
    "longitude": -73.9458598,
    "latitude": 40.7115458
  },
  {
    "name": "Bushwick Bicycles",
    "address": "308 Irving Avenue, Brooklyn, NY",
    "boro": "Brooklyn",
    "storetype": 1,
    "hours": "M-Sat 9:30-7, Sun 9:30-5:30",
    "website": "http://bushwickbicycleshop.webs.com/",
    "longitude": -73.914311,
    "latitude": 40.698743
  },
  {
    "name": "Bike and Roll",
    "address": "Riverside Drive and W 70th Street, Manhattan, NY",
    "boro": "Manhattan",
    "storetype": 2,
    "hours": "Closed for the winter season",
    "website": "http://www.bikenewyorkcity.com/",
    "longitude": -73.98863911628723,
    "latitude": 40.779826511063796,
    "foursquare_id": "4c7046f6d97fa14367a5f5ca",
    "foursquare_name": "Bike and Roll"
  },
  {
    "name": "Bike and Roll",
    "address": "Old Fulton Street, Brooklyn, NY",
    "boro": "Brooklyn",
    "storetype": 2,
    "hours": "Closed for the winter season",
    "website": "http://www.bikenewyorkcity.com/",
    "longitude": -73.99485111236572,
    "latitude": 40.70310659483828,
    "foursquare_id": "4bdb5e33f1499c74bc4d38f3",
    "foursquare_name": "Bike and Roll"
  },
  {
    "name": "Bike and Roll",
    "address": "Hudson River Greenway and W. 135th Street, Manhattan, NY",
    "boro": "Manhattan",
    "storetype": 2,
    "hours": "Closed for the winter season",
    "website": "http://www.bikenewyorkcity.com/",
    "longitude": -73.95879149436949,
    "latitude": 40.82165267333597,
    "foursquare_id": "4c7046f6d97fa14367a5f5ca",
    "foursquare_name": "Bike and Roll"
  },
  {
    "name": "Bike and Roll",
    "address": "East River Greenway (bwn Houston and E. 6th St), Manhattan, NY",
    "boro": "Manhattan",
    "storetype": 2,
    "hours": "Closed for the winter season",
    "website": "http://www.bikenewyorkcity.com/",
    "longitude": -73.97446632385254,
    "latitude": 40.72037995010057,
    "foursquare_id": "4c7046f6d97fa14367a5f5ca",
    "foursquare_name": "Bike and Roll"
  },
  {
    "name": "Larry's Freewheeling",
    "address": "301 Cathedral Parkway, New York, NY",
    "boro": "New York",
    "storetype": 3,
    "hours": "",
    "website": "http://www.larrysfreewheeling.com/",
    "longitude": -73.9580497,
    "latitude": 40.8010904,
    "foursquare_id": "4f95a354e4b04c0b8e8f452f",
    "foursquare_name": "Larry's Freewheeling"
  },
  {
    "name": "Bespoke Bicycles",
    "address": "64 Lafayette Avenue, Brooklyn, NY",
    "boro": "Brooklyn",
    "storetype": 1,
    "hours": "Tue 2-6, Wed-Mon 10-6",
    "website": "http:\\www.bespoke-bicycles.com",
    "longitude": -73.975349,
    "latitude": 40.686983
  }
]
